$GPGGA,163916.043,4216.626,N,07145.354,W,1,12,1.0,0.0,M,0.0,M,,*77
$GPGSA,A,3,01,02,03,04,05,06,07,08,09,10,11,12,1.0,1.0,1.0*30
$GPRMC,163916.043,A,4216.626,N,07145.354,W,002.0,174.0,031224,000.0,W*65
$GPGGA,163917.043,4216.626,N,07145.354,W,1,12,1.0,0.0,M,0.0,M,,*76
$GPGSA,A,3,01,02,03,04,05,06,07,08,09,10,11,12,1.0,1.0,1.0*30
$GPRMC,163917.043,A,4216.626,N,07145.354,W,002.1,216.9,031224,000.0,W*6B
$GPGGA,163918.043,4216.625,N,07145.354,W,1,12,1.0,0.0,M,0.0,M,,*7A
$GPGSA,A,3,01,02,03,04,05,06,07,08,09,10,11,12,1.0,1.0,1.0*30
$GPRMC,163918.043,A,4216.625,N,07145.354,W,002.1,000.0,031224,000.0,W*6B
$GPGGA,163919.043,4216.625,N,07145.354,W,1,12,1.0,0.0,M,0.0,M,,*7B
$GPGSA,A,3,01,02,03,04,05,06,07,08,09,10,11,12,1.0,1.0,1.0*30
$GPRMC,163919.043,A,4216.625,N,07145.354,W,001.4,138.0,031224,000.0,W*66
$GPGGA,163920.043,4216.625,N,07145.354,W,1,12,1.0,0.0,M,0.0,M,,*71
$GPGSA,A,3,01,02,03,04,05,06,07,08,09,10,11,12,1.0,1.0,1.0*30
$GPRMC,163920.043,A,4216.625,N,07145.354,W,001.4,000.0,031224,000.0,W*66
$GPGGA,163921.043,4216.625,N,07145.354,W,1,12,1.0,0.0,M,0.0,M,,*70
$GPGSA,A,3,01,02,03,04,05,06,07,08,09,10,11,12,1.0,1.0,1.0*30
$GPRMC,163921.043,A,4216.625,N,07145.354,W,001.8,183.4,031224,000.0,W*65
$GPGGA,163922.043,4216.625,N,07145.354,W,1,12,1.0,0.0,M,0.0,M,,*73
$GPGSA,A,3,01,02,03,04,05,06,07,08,09,10,11,12,1.0,1.0,1.0*30
$GPRMC,163922.043,A,4216.625,N,07145.354,W,001.8,000.0,031224,000.0,W*68
$GPGGA,163923.043,4216.625,N,07145.354,W,1,12,1.0,0.0,M,0.0,M,,*72
$GPGSA,A,3,01,02,03,04,05,06,07,08,09,10,11,12,1.0,1.0,1.0*30
$GPRMC,163923.043,A,4216.625,N,07145.354,W,001.4,122.5,031224,000.0,W*61
$GPGGA,163924.043,4216.624,N,07145.354,W,1,12,1.0,0.0,M,0.0,M,,*74
$GPGSA,A,3,01,02,03,04,05,06,07,08,09,10,11,12,1.0,1.0,1.0*30
$GPRMC,163924.043,A,4216.624,N,07145.354,W,001.4,000.0,031224,000.0,W*63
$GPGGA,163925.043,4216.624,N,07145.354,W,1,12,1.0,0.0,M,0.0,M,,*75
$GPGSA,A,3,01,02,03,04,05,06,07,08,09,10,11,12,1.0,1.0,1.0*30
$GPRMC,163925.043,A,4216.624,N,07145.354,W,002.3,217.4,031224,000.0,W*66
$GPGGA,163926.043,4216.624,N,07145.354,W,1,12,1.0,0.0,M,0.0,M,,*76
$GPGSA,A,3,01,02,03,04,05,06,07,08,09,10,11,12,1.0,1.0,1.0*30
$GPRMC,163926.043,A,4216.624,N,07145.354,W,002.3,000.0,031224,000.0,W*65
$GPGGA,163927.043,4216.624,N,07145.354,W,1,12,1.0,0.0,M,0.0,M,,*77
$GPGSA,A,3,01,02,03,04,05,06,07,08,09,10,11,12,1.0,1.0,1.0*30
$GPRMC,163927.043,A,4216.624,N,07145.354,W,002.2,166.0,031224,000.0,W*64
$GPGGA,163928.043,4216.623,N,07145.354,W,1,12,1.0,0.0,M,0.0,M,,*7F
$GPGSA,A,3,01,02,03,04,05,06,07,08,09,10,11,12,1.0,1.0,1.0*30
$GPRMC,163928.043,A,4216.623,N,07145.354,W,002.2,000.0,031224,000.0,W*6D
$GPGGA,163929.043,4216.623,N,07145.354,W,1,12,1.0,0.0,M,0.0,M,,*7E
$GPGSA,A,3,01,02,03,04,05,06,07,08,09,10,11,12,1.0,1.0,1.0*30
$GPRMC,163929.043,A,4216.623,N,07145.354,W,001.8,208.1,031224,000.0,W*6E
$GPGGA,163930.043,4216.623,N,07145.354,W,1,12,1.0,0.0,M,0.0,M,,*76
$GPGSA,A,3,01,02,03,04,05,06,07,08,09,10,11,12,1.0,1.0,1.0*30
$GPRMC,163930.043,A,4216.623,N,07145.354,W,002.2,171.5,031224,000.0,W*66
$GPGGA,163931.043,4216.622,N,07145.354,W,1,12,1.0,0.0,M,0.0,M,,*76
$GPGSA,A,3,01,02,03,04,05,06,07,08,09,10,11,12,1.0,1.0,1.0*30
$GPRMC,163931.043,A,4216.622,N,07145.354,W,001.4,228.0,031224,000.0,W*69
$GPGGA,163932.043,4216.622,N,07145.354,W,1,12,1.0,0.0,M,0.0,M,,*75
$GPGSA,A,3,01,02,03,04,05,06,07,08,09,10,11,12,1.0,1.0,1.0*30
$GPRMC,163932.043,A,4216.622,N,07145.354,W,001.4,000.0,031224,000.0,W*62
$GPGGA,163933.043,4216.622,N,07145.354,W,1,12,1.0,0.0,M,0.0,M,,*74
$GPGSA,A,3,01,02,03,04,05,06,07,08,09,10,11,12,1.0,1.0,1.0*30
$GPRMC,163933.043,A,4216.622,N,07145.354,W,000.0,000.0,031224,000.0,W*66
$GPGGA,163934.043,4216.622,N,07145.354,W,1,12,1.0,0.0,M,0.0,M,,*73
$GPGSA,A,3,01,02,03,04,05,06,07,08,09,10,11,12,1.0,1.0,1.0*30
$GPRMC,163934.043,A,4216.622,N,07145.354,W,000.8,140.2,031224,000.0,W*6E
$GPGGA,163935.043,4216.622,N,07145.354,W,1,12,1.0,0.0,M,0.0,M,,*72
$GPGSA,A,3,01,02,03,04,05,06,07,08,09,10,11,12,1.0,1.0,1.0*30
$GPRMC,163935.043,A,4216.622,N,07145.354,W,000.8,000.0,031224,000.0,W*68
$GPGGA,163936.043,4216.622,N,07145.354,W,1,12,1.0,0.0,M,0.0,M,,*71
$GPGSA,A,3,01,02,03,04,05,06,07,08,09,10,11,12,1.0,1.0,1.0*30
$GPRMC,163936.043,A,4216.622,N,07145.354,W,003.7,168.4,031224,000.0,W*6C
$GPGGA,163937.043,4216.621,N,07145.354,W,1,12,1.0,0.0,M,0.0,M,,*73
$GPGSA,A,3,01,02,03,04,05,06,07,08,09,10,11,12,1.0,1.0,1.0*30
$GPRMC,163937.043,A,4216.621,N,07145.354,W,003.7,168.4,031224,000.0,W*6E
$GPGGA,163916.043,4216.626,N,07145.354,W,1,12,1.0,0.0,M,0.0,M,,*77
$GPGSA,A,3,01,02,03,04,05,06,07,08,09,10,11,12,1.0,1.0,1.0*30
$GPRMC,163916.043,A,4216.626,N,07145.354,W,002.0,174.0,031224,000.0,W*65
$GPGGA,163917.043,4216.626,N,07145.354,W,1,12,1.0,0.0,M,0.0,M,,*76
$GPGSA,A,3,01,02,03,04,05,06,07,08,09,10,11,12,1.0,1.0,1.0*30
$GPRMC,163917.043,A,4216.626,N,07145.354,W,002.1,216.9,031224,000.0,W*6B
$GPGGA,163918.043,4216.625,N,07145.354,W,1,12,1.0,0.0,M,0.0,M,,*7A
$GPGSA,A,3,01,02,03,04,05,06,07,08,09,10,11,12,1.0,1.0,1.0*30
$GPRMC,163918.043,A,4216.625,N,07145.354,W,002.1,000.0,031224,000.0,W*6B
$GPGGA,163919.043,4216.625,N,07145.354,W,1,12,1.0,0.0,M,0.0,M,,*7B
$GPGSA,A,3,01,02,03,04,05,06,07,08,09,10,11,12,1.0,1.0,1.0*30
$GPRMC,163919.043,A,4216.625,N,07145.354,W,001.4,138.0,031224,000.0,W*66
$GPGGA,163920.043,4216.625,N,07145.354,W,1,12,1.0,0.0,M,0.0,M,,*71
$GPGSA,A,3,01,02,03,04,05,06,07,08,09,10,11,12,1.0,1.0,1.0*30
$GPRMC,163920.043,A,4216.625,N,07145.354,W,001.4,000.0,031224,000.0,W*66
$GPGGA,163921.043,4216.625,N,07145.354,W,1,12,1.0,0.0,M,0.0,M,,*70
$GPGSA,A,3,01,02,03,04,05,06,07,08,09,10,11,12,1.0,1.0,1.0*30
$GPRMC,163921.043,A,4216.625,N,07145.354,W,001.8,183.4,031224,000.0,W*65
$GPGGA,163922.043,4216.625,N,07145.354,W,1,12,1.0,0.0,M,0.0,M,,*73
$GPGSA,A,3,01,02,03,04,05,06,07,08,09,10,11,12,1.0,1.0,1.0*30
$GPRMC,163922.043,A,4216.625,N,07145.354,W,001.8,000.0,031224,000.0,W*68
$GPGGA,163923.043,4216.625,N,07145.354,W,1,12,1.0,0.0,M,0.0,M,,*72
$GPGSA,A,3,01,02,03,04,05,06,07,08,09,10,11,12,1.0,1.0,1.0*30
$GPRMC,163923.043,A,4216.625,N,07145.354,W,001.4,122.5,031224,000.0,W*61
$GPGGA,163924.043,4216.624,N,07145.354,W,1,12,1.0,0.0,M,0.0,M,,*74
$GPGSA,A,3,01,02,03,04,05,06,07,08,09,10,11,12,1.0,1.0,1.0*30
$GPRMC,163924.043,A,4216.624,N,07145.354,W,001.4,000.0,031224,000.0,W*63
$GPGGA,163925.043,4216.624,N,07145.354,W,1,12,1.0,0.0,M,0.0,M,,*75
$GPGSA,A,3,01,02,03,04,05,06,07,08,09,10,11,12,1.0,1.0,1.0*30
$GPRMC,163925.043,A,4216.624,N,07145.354,W,002.3,217.4,031224,000.0,W*66
$GPGGA,163926.043,4216.624,N,07145.354,W,1,12,1.0,0.0,M,0.0,M,,*76
$GPGSA,A,3,01,02,03,04,05,06,07,08,09,10,11,12,1.0,1.0,1.0*30
$GPRMC,163926.043,A,4216.624,N,07145.354,W,002.3,000.0,031224,000.0,W*65
$GPGGA,163927.043,4216.624,N,07145.354,W,1,12,1.0,0.0,M,0.0,M,,*77
$GPGSA,A,3,01,02,03,04,05,06,07,08,09,10,11,12,1.0,1.0,1.0*30
$GPRMC,163927.043,A,4216.624,N,07145.354,W,002.2,166.0,031224,000.0,W*64
$GPGGA,163928.043,4216.623,N,07145.354,W,1,12,1.0,0.0,M,0.0,M,,*7F
$GPGSA,A,3,01,02,03,04,05,06,07,08,09,10,11,12,1.0,1.0,1.0*30
$GPRMC,163928.043,A,4216.623,N,07145.354,W,002.2,000.0,031224,000.0,W*6D
$GPGGA,163929.043,4216.623,N,07145.354,W,1,12,1.0,0.0,M,0.0,M,,*7E
$GPGSA,A,3,01,02,03,04,05,06,07,08,09,10,11,12,1.0,1.0,1.0*30
$GPRMC,163929.043,A,4216.623,N,07145.354,W,001.8,208.1,031224,000.0,W*6E
$GPGGA,163930.043,4216.623,N,07145.354,W,1,12,1.0,0.0,M,0.0,M,,*76
$GPGSA,A,3,01,02,03,04,05,06,07,08,09,10,11,12,1.0,1.0,1.0*30
$GPRMC,163930.043,A,4216.623,N,07145.354,W,002.2,171.5,031224,000.0,W*66
$GPGGA,163931.043,4216.622,N,07145.354,W,1,12,1.0,0.0,M,0.0,M,,*76
$GPGSA,A,3,01,02,03,04,05,06,07,08,09,10,11,12,1.0,1.0,1.0*30
$GPRMC,163931.043,A,4216.622,N,07145.354,W,001.4,228.0,031224,000.0,W*69
$GPGGA,163932.043,4216.622,N,07145.354,W,1,12,1.0,0.0,M,0.0,M,,*75
$GPGSA,A,3,01,02,03,04,05,06,07,08,09,10,11,12,1.0,1.0,1.0*30
$GPRMC,163932.043,A,4216.622,N,07145.354,W,001.4,000.0,031224,000.0,W*62
$GPGGA,163933.043,4216.622,N,07145.354,W,1,12,1.0,0.0,M,0.0,M,,*74
$GPGSA,A,3,01,02,03,04,05,06,07,08,09,10,11,12,1.0,1.0,1.0*30
$GPRMC,163933.043,A,4216.622,N,07145.354,W,000.0,000.0,031224,000.0,W*66
$GPGGA,163934.043,4216.622,N,07145.354,W,1,12,1.0,0.0,M,0.0,M,,*73
$GPGSA,A,3,01,02,03,04,05,06,07,08,09,10,11,12,1.0,1.0,1.0*30
$GPRMC,163934.043,A,4216.622,N,07145.354,W,000.8,140.2,031224,000.0,W*6E
$GPGGA,163935.043,4216.622,N,07145.354,W,1,12,1.0,0.0,M,0.0,M,,*72
$GPGSA,A,3,01,02,03,04,05,06,07,08,09,10,11,12,1.0,1.0,1.0*30
$GPRMC,163935.043,A,4216.622,N,07145.354,W,000.8,000.0,031224,000.0,W*68
$GPGGA,163936.043,4216.622,N,07145.354,W,1,12,1.0,0.0,M,0.0,M,,*71
$GPGSA,A,3,01,02,03,04,05,06,07,08,09,10,11,12,1.0,1.0,1.0*30
$GPRMC,163936.043,A,4216.622,N,07145.354,W,003.7,168.4,031224,000.0,W*6C
$GPGGA,163937.043,4216.621,N,07145.354,W,1,12,1.0,0.0,M,0.0,M,,*73
$GPGSA,A,3,01,02,03,04,05,06,07,08,09,10,11,12,1.0,1.0,1.0*30
$GPRMC,163937.043,A,4216.621,N,07145.354,W,003.7,168.4,031224,000.0,W*6E
$GPGGA,163916.043,4216.626,N,07145.354,W,1,12,1.0,0.0,M,0.0,M,,*77
$GPGSA,A,3,01,02,03,04,05,06,07,08,09,10,11,12,1.0,1.0,1.0*30
$GPRMC,163916.043,A,4216.626,N,07145.354,W,002.0,174.0,031224,000.0,W*65
$GPGGA,163917.043,4216.626,N,07145.354,W,1,12,1.0,0.0,M,0.0,M,,*76
$GPGSA,A,3,01,02,03,04,05,06,07,08,09,10,11,12,1.0,1.0,1.0*30
$GPRMC,163917.043,A,4216.626,N,07145.354,W,002.1,216.9,031224,000.0,W*6B
$GPGGA,163918.043,4216.625,N,07145.354,W,1,12,1.0,0.0,M,0.0,M,,*7A
$GPGSA,A,3,01,02,03,04,05,06,07,08,09,10,11,12,1.0,1.0,1.0*30
$GPRMC,163918.043,A,4216.625,N,07145.354,W,002.1,000.0,031224,000.0,W*6B
$GPGGA,163919.043,4216.625,N,07145.354,W,1,12,1.0,0.0,M,0.0,M,,*7B
$GPGSA,A,3,01,02,03,04,05,06,07,08,09,10,11,12,1.0,1.0,1.0*30
$GPRMC,163919.043,A,4216.625,N,07145.354,W,001.4,138.0,031224,000.0,W*66
$GPGGA,163920.043,4216.625,N,07145.354,W,1,12,1.0,0.0,M,0.0,M,,*71
$GPGSA,A,3,01,02,03,04,05,06,07,08,09,10,11,12,1.0,1.0,1.0*30
$GPRMC,163920.043,A,4216.625,N,07145.354,W,001.4,000.0,031224,000.0,W*66
$GPGGA,163921.043,4216.625,N,07145.354,W,1,12,1.0,0.0,M,0.0,M,,*70
$GPGSA,A,3,01,02,03,04,05,06,07,08,09,10,11,12,1.0,1.0,1.0*30
$GPRMC,163921.043,A,4216.625,N,07145.354,W,001.8,183.4,031224,000.0,W*65
$GPGGA,163922.043,4216.625,N,07145.354,W,1,12,1.0,0.0,M,0.0,M,,*73
$GPGSA,A,3,01,02,03,04,05,06,07,08,09,10,11,12,1.0,1.0,1.0*30
$GPRMC,163922.043,A,4216.625,N,07145.354,W,001.8,000.0,031224,000.0,W*68
$GPGGA,163923.043,4216.625,N,07145.354,W,1,12,1.0,0.0,M,0.0,M,,*72
$GPGSA,A,3,01,02,03,04,05,06,07,08,09,10,11,12,1.0,1.0,1.0*30
$GPRMC,163923.043,A,4216.625,N,07145.354,W,001.4,122.5,031224,000.0,W*61
$GPGGA,163924.043,4216.624,N,07145.354,W,1,12,1.0,0.0,M,0.0,M,,*74
$GPGSA,A,3,01,02,03,04,05,06,07,08,09,10,11,12,1.0,1.0,1.0*30
$GPRMC,163924.043,A,4216.624,N,07145.354,W,001.4,000.0,031224,000.0,W*63
$GPGGA,163925.043,4216.624,N,07145.354,W,1,12,1.0,0.0,M,0.0,M,,*75
$GPGSA,A,3,01,02,03,04,05,06,07,08,09,10,11,12,1.0,1.0,1.0*30
$GPRMC,163925.043,A,4216.624,N,07145.354,W,002.3,217.4,031224,000.0,W*66
$GPGGA,163926.043,4216.624,N,07145.354,W,1,12,1.0,0.0,M,0.0,M,,*76
$GPGSA,A,3,01,02,03,04,05,06,07,08,09,10,11,12,1.0,1.0,1.0*30
$GPRMC,163926.043,A,4216.624,N,07145.354,W,002.3,000.0,031224,000.0,W*65
$GPGGA,163927.043,4216.624,N,07145.354,W,1,12,1.0,0.0,M,0.0,M,,*77
$GPGSA,A,3,01,02,03,04,05,06,07,08,09,10,11,12,1.0,1.0,1.0*30
$GPRMC,163927.043,A,4216.624,N,07145.354,W,002.2,166.0,031224,000.0,W*64
$GPGGA,163928.043,4216.623,N,07145.354,W,1,12,1.0,0.0,M,0.0,M,,*7F
$GPGSA,A,3,01,02,03,04,05,06,07,08,09,10,11,12,1.0,1.0,1.0*30
$GPRMC,163928.043,A,4216.623,N,07145.354,W,002.2,000.0,031224,000.0,W*6D
$GPGGA,163929.043,4216.623,N,07145.354,W,1,12,1.0,0.0,M,0.0,M,,*7E
$GPGSA,A,3,01,02,03,04,05,06,07,08,09,10,11,12,1.0,1.0,1.0*30
$GPRMC,163929.043,A,4216.623,N,07145.354,W,001.8,208.1,031224,000.0,W*6E
$GPGGA,163930.043,4216.623,N,07145.354,W,1,12,1.0,0.0,M,0.0,M,,*76
$GPGSA,A,3,01,02,03,04,05,06,07,08,09,10,11,12,1.0,1.0,1.0*30
$GPRMC,163930.043,A,4216.623,N,07145.354,W,002.2,171.5,031224,000.0,W*66
$GPGGA,163931.043,4216.622,N,07145.354,W,1,12,1.0,0.0,M,0.0,M,,*76
$GPGSA,A,3,01,02,03,04,05,06,07,08,09,10,11,12,1.0,1.0,1.0*30
$GPRMC,163931.043,A,4216.622,N,07145.354,W,001.4,228.0,031224,000.0,W*69
$GPGGA,163932.043,4216.622,N,07145.354,W,1,12,1.0,0.0,M,0.0,M,,*75
$GPGSA,A,3,01,02,03,04,05,06,07,08,09,10,11,12,1.0,1.0,1.0*30
$GPRMC,163932.043,A,4216.622,N,07145.354,W,001.4,000.0,031224,000.0,W*62
$GPGGA,163933.043,4216.622,N,07145.354,W,1,12,1.0,0.0,M,0.0,M,,*74
$GPGSA,A,3,01,02,03,04,05,06,07,08,09,10,11,12,1.0,1.0,1.0*30
$GPRMC,163933.043,A,4216.622,N,07145.354,W,000.0,000.0,031224,000.0,W*66
$GPGGA,163934.043,4216.622,N,07145.354,W,1,12,1.0,0.0,M,0.0,M,,*73
$GPGSA,A,3,01,02,03,04,05,06,07,08,09,10,11,12,1.0,1.0,1.0*30
$GPRMC,163934.043,A,4216.622,N,07145.354,W,000.8,140.2,031224,000.0,W*6E
$GPGGA,163935.043,4216.622,N,07145.354,W,1,12,1.0,0.0,M,0.0,M,,*72
$GPGSA,A,3,01,02,03,04,05,06,07,08,09,10,11,12,1.0,1.0,1.0*30
$GPRMC,163935.043,A,4216.622,N,07145.354,W,000.8,000.0,031224,000.0,W*68
$GPGGA,163936.043,4216.622,N,07145.354,W,1,12,1.0,0.0,M,0.0,M,,*71
$GPGSA,A,3,01,02,03,04,05,06,07,08,09,10,11,12,1.0,1.0,1.0*30
$GPRMC,163936.043,A,4216.622,N,07145.354,W,003.7,168.4,031224,000.0,W*6C
$GPGGA,163937.043,4216.621,N,07145.354,W,1,12,1.0,0.0,M,0.0,M,,*73
$GPGSA,A,3,01,02,03,04,05,06,07,08,09,10,11,12,1.0,1.0,1.0*30
$GPRMC,163937.043,A,4216.621,N,07145.354,W,003.7,168.4,031224,000.0,W*6E
$GPGGA,163916.043,4216.626,N,07145.354,W,1,12,1.0,0.0,M,0.0,M,,*77
$GPGSA,A,3,01,02,03,04,05,06,07,08,09,10,11,12,1.0,1.0,1.0*30
$GPRMC,163916.043,A,4216.626,N,07145.354,W,002.0,174.0,031224,000.0,W*65
$GPGGA,163917.043,4216.626,N,07145.354,W,1,12,1.0,0.0,M,0.0,M,,*76
$GPGSA,A,3,01,02,03,04,05,06,07,08,09,10,11,12,1.0,1.0,1.0*30
$GPRMC,163917.043,A,4216.626,N,07145.354,W,002.1,216.9,031224,000.0,W*6B
$GPGGA,163918.043,4216.625,N,07145.354,W,1,12,1.0,0.0,M,0.0,M,,*7A
$GPGSA,A,3,01,02,03,04,05,06,07,08,09,10,11,12,1.0,1.0,1.0*30
$GPRMC,163918.043,A,4216.625,N,07145.354,W,002.1,000.0,031224,000.0,W*6B
$GPGGA,163919.043,4216.625,N,07145.354,W,1,12,1.0,0.0,M,0.0,M,,*7B
$GPGSA,A,3,01,02,03,04,05,06,07,08,09,10,11,12,1.0,1.0,1.0*30
$GPRMC,163919.043,A,4216.625,N,07145.354,W,001.4,138.0,031224,000.0,W*66
$GPGGA,163920.043,4216.625,N,07145.354,W,1,12,1.0,0.0,M,0.0,M,,*71
$GPGSA,A,3,01,02,03,04,05,06,07,08,09,10,11,12,1.0,1.0,1.0*30
$GPRMC,163920.043,A,4216.625,N,07145.354,W,001.4,000.0,031224,000.0,W*66
$GPGGA,163921.043,4216.625,N,07145.354,W,1,12,1.0,0.0,M,0.0,M,,*70
$GPGSA,A,3,01,02,03,04,05,06,07,08,09,10,11,12,1.0,1.0,1.0*30
$GPRMC,163921.043,A,4216.625,N,07145.354,W,001.8,183.4,031224,000.0,W*65
$GPGGA,163922.043,4216.625,N,07145.354,W,1,12,1.0,0.0,M,0.0,M,,*73
$GPGSA,A,3,01,02,03,04,05,06,07,08,09,10,11,12,1.0,1.0,1.0*30
$GPRMC,163922.043,A,4216.625,N,07145.354,W,001.8,000.0,031224,000.0,W*68
$GPGGA,163923.043,4216.625,N,07145.354,W,1,12,1.0,0.0,M,0.0,M,,*72
$GPGSA,A,3,01,02,03,04,05,06,07,08,09,10,11,12,1.0,1.0,1.0*30
$GPRMC,163923.043,A,4216.625,N,07145.354,W,001.4,122.5,031224,000.0,W*61
$GPGGA,163924.043,4216.624,N,07145.354,W,1,12,1.0,0.0,M,0.0,M,,*74
$GPGSA,A,3,01,02,03,04,05,06,07,08,09,10,11,12,1.0,1.0,1.0*30
$GPRMC,163924.043,A,4216.624,N,07145.354,W,001.4,000.0,031224,000.0,W*63
$GPGGA,163925.043,4216.624,N,07145.354,W,1,12,1.0,0.0,M,0.0,M,,*75
$GPGSA,A,3,01,02,03,04,05,06,07,08,09,10,11,12,1.0,1.0,1.0*30
$GPRMC,163925.043,A,4216.624,N,07145.354,W,002.3,217.4,031224,000.0,W*66
$GPGGA,163926.043,4216.624,N,07145.354,W,1,12,1.0,0.0,M,0.0,M,,*76
$GPGSA,A,3,01,02,03,04,05,06,07,08,09,10,11,12,1.0,1.0,1.0*30
$GPRMC,163926.043,A,4216.624,N,07145.354,W,002.3,000.0,031224,000.0,W*65
$GPGGA,163927.043,4216.624,N,07145.354,W,1,12,1.0,0.0,M,0.0,M,,*77
$GPGSA,A,3,01,02,03,04,05,06,07,08,09,10,11,12,1.0,1.0,1.0*30
$GPRMC,163927.043,A,4216.624,N,07145.354,W,002.2,166.0,031224,000.0,W*64
$GPGGA,163928.043,4216.623,N,07145.354,W,1,12,1.0,0.0,M,0.0,M,,*7F
$GPGSA,A,3,01,02,03,04,05,06,07,08,09,10,11,12,1.0,1.0,1.0*30
$GPRMC,163928.043,A,4216.623,N,07145.354,W,002.2,000.0,031224,000.0,W*6D
$GPGGA,163929.043,4216.623,N,07145.354,W,1,12,1.0,0.0,M,0.0,M,,*7E
$GPGSA,A,3,01,02,03,04,05,06,07,08,09,10,11,12,1.0,1.0,1.0*30
$GPRMC,163929.043,A,4216.623,N,07145.354,W,001.8,208.1,031224,000.0,W*6E
$GPGGA,163930.043,4216.623,N,07145.354,W,1,12,1.0,0.0,M,0.0,M,,*76
$GPGSA,A,3,01,02,03,04,05,06,07,08,09,10,11,12,1.0,1.0,1.0*30
$GPRMC,163930.043,A,4216.623,N,07145.354,W,002.2,171.5,031224,000.0,W*66
$GPGGA,163931.043,4216.622,N,07145.354,W,1,12,1.0,0.0,M,0.0,M,,*76
$GPGSA,A,3,01,02,03,04,05,06,07,08,09,10,11,12,1.0,1.0,1.0*30
$GPRMC,163931.043,A,4216.622,N,07145.354,W,001.4,228.0,031224,000.0,W*69
$GPGGA,163932.043,4216.622,N,07145.354,W,1,12,1.0,0.0,M,0.0,M,,*75
$GPGSA,A,3,01,02,03,04,05,06,07,08,09,10,11,12,1.0,1.0,1.0*30
$GPRMC,163932.043,A,4216.622,N,07145.354,W,001.4,000.0,031224,000.0,W*62
$GPGGA,163933.043,4216.622,N,07145.354,W,1,12,1.0,0.0,M,0.0,M,,*74
$GPGSA,A,3,01,02,03,04,05,06,07,08,09,10,11,12,1.0,1.0,1.0*30
$GPRMC,163933.043,A,4216.622,N,07145.354,W,000.0,000.0,031224,000.0,W*66
$GPGGA,163934.043,4216.622,N,07145.354,W,1,12,1.0,0.0,M,0.0,M,,*73
$GPGSA,A,3,01,02,03,04,05,06,07,08,09,10,11,12,1.0,1.0,1.0*30
$GPRMC,163934.043,A,4216.622,N,07145.354,W,000.8,140.2,031224,000.0,W*6E
$GPGGA,163935.043,4216.622,N,07145.354,W,1,12,1.0,0.0,M,0.0,M,,*72
$GPGSA,A,3,01,02,03,04,05,06,07,08,09,10,11,12,1.0,1.0,1.0*30
$GPRMC,163935.043,A,4216.622,N,07145.354,W,000.8,000.0,031224,000.0,W*68
$GPGGA,163936.043,4216.622,N,07145.354,W,1,12,1.0,0.0,M,0.0,M,,*71
$GPGSA,A,3,01,02,03,04,05,06,07,08,09,10,11,12,1.0,1.0,1.0*30
$GPRMC,163936.043,A,4216.622,N,07145.354,W,003.7,168.4,031224,000.0,W*6C
$GPGGA,163937.043,4216.621,N,07145.354,W,1,12,1.0,0.0,M,0.0,M,,*73
$GPGSA,A,3,01,02,03,04,05,06,07,08,09,10,11,12,1.0,1.0,1.0*30
$GPRMC,163937.043,A,4216.621,N,07145.354,W,003.7,168.4,031224,000.0,W*6E
